[  
   {  
      "name":"Автономна республіка Крим",
      "district":"Автономна республіка Крим",
      "country":"Україна",
      "latitude":44.952117,
      "longitude":34.102417
   },
   {  
      "name":"Бахчисарайський район",
      "district":"Автономна республіка Крим",
      "country":"Україна",
      "latitude":44.7463171,
      "longitude":33.9075001
   },
   {  
      "name":"Білогірський район",
      "district":"Автономна республіка Крим",
      "country":"Україна",
      "latitude":45.067982,
      "longitude":34.5667344
   },
   {  
      "name":"Джанкойський район",
      "district":"Автономна республіка Крим",
      "country":"Україна",
      "latitude":45.8228376,
      "longitude":34.4774497
   },
   {  
      "name":"Кіровський район",
      "district":"Автономна республіка Крим",
      "country":"Україна",
      "latitude":45.1443455,
      "longitude":35.199088
   },
   {  
      "name":"Красногвардійський район",
      "district":"Автономна республіка Крим",
      "country":"Україна",
      "latitude":45.4034747,
      "longitude":34.2051928
   },
   {  
      "name":"Красноперекопський район",
      "district":"Автономна республіка Крим",
      "country":"Україна",
      "latitude":45.8803578,
      "longitude":33.8019265
   },
   {  
      "name":"Ленінський район",
      "district":"Автономна республіка Крим",
      "country":"Україна",
      "latitude":45.2358032,
      "longitude":36.0175387
   },
   {  
      "name":"Нижньогірський район",
      "district":"Автономна республіка Крим",
      "country":"Україна",
      "latitude":45.5295837,
      "longitude":34.8300194
   },
   {  
      "name":"Первомайський район",
      "district":"Автономна республіка Крим",
      "country":"Україна",
      "latitude":45.6001816,
      "longitude":33.8743783
   },
   {  
      "name":"Роздольненський район",
      "district":"Автономна республіка Крим",
      "country":"Україна",
      "latitude":45.678131,
      "longitude":33.3843484
   },
   {  
      "name":"Сакський район",
      "district":"Автономна республіка Крим",
      "country":"Україна",
      "latitude":45.307028,
      "longitude":33.4836247
   },
   {  
      "name":"Сімферопольський район",
      "district":"Автономна республіка Крим",
      "country":"Україна",
      "latitude":44.98712159999999,
      "longitude":33.9382989
   },
   {  
      "name":"Совєтський район",
      "district":"Автономна республіка Крим",
      "country":"Україна",
      "latitude":45.3081158,
      "longitude":34.9752769
   },
   {  
      "name":"Чорноморський район",
      "district":"Автономна республіка Крим",
      "country":"Україна",
      "latitude":45.4747647,
      "longitude":32.9714618
   },
   {  
      "name":"Вінниця",
      "district":"Вінницька область",
      "country":"Україна",
      "latitude":49.233083,
      "longitude":28.4682169
   },
   {  
      "name":"Барський район",
      "district":"Вінницька область",
      "country":"Україна",
      "latitude":48.9912133,
      "longitude":27.6865219
   },
   {  
      "name":"Бершадський район",
      "district":"Вінницька область",
      "country":"Україна",
      "latitude":48.3771872,
      "longitude":29.6298051
   },
   {  
      "name":"Вінницький район",
      "district":"Вінницька область",
      "country":"Україна",
      "latitude":49.17270569999999,
      "longitude":28.5742292
   },
   {  
      "name":"Гайсинський район",
      "district":"Вінницька область",
      "country":"Україна",
      "latitude":48.7994725,
      "longitude":29.3740088
   },
   {  
      "name":"Жмеринський район",
      "district":"Вінницька область",
      "country":"Україна",
      "latitude":49.00044,
      "longitude":27.9853903
   },
   {  
      "name":"Іллінецький район",
      "district":"Вінницька область",
      "country":"Україна",
      "latitude":49.0541329,
      "longitude":29.3293728
   },
   {  
      "name":"Калинівський район",
      "district":"Вінницька область",
      "country":"Україна",
      "latitude":49.52783489999999,
      "longitude":28.4848325
   },
   {  
      "name":"Козятинський район",
      "district":"Вінницька область",
      "country":"Україна",
      "latitude":49.7144023,
      "longitude":28.6161344
   },
   {  
      "name":"Крижопільський район",
      "district":"Вінницька область",
      "country":"Україна",
      "latitude":48.3629837,
      "longitude":28.7389365
   },
   {  
      "name":"Липовецький район",
      "district":"Вінницька область",
      "country":"Україна",
      "latitude":49.2868248,
      "longitude":28.8854449
   },
   {  
      "name":"Літинський район",
      "district":"Вінницька область",
      "country":"Україна",
      "latitude":49.3336882,
      "longitude":28.052572
   },
   {  
      "name":"Могилів-Подільський район",
      "district":"Вінницька область",
      "country":"Україна",
      "latitude":48.53353569999999,
      "longitude":27.7746536
   },
   {  
      "name":"Мурованокуриловецький район",
      "district":"Вінницька область",
      "country":"Україна",
      "latitude":48.7569768,
      "longitude":27.5825261
   },
   {  
      "name":"Немирівський район",
      "district":"Вінницька область",
      "country":"Україна",
      "latitude":48.92386279999999,
      "longitude":28.9238542
   },
   {  
      "name":"Оратівський район",
      "district":"Вінницька область",
      "country":"Україна",
      "latitude":49.2289124,
      "longitude":29.4162866
   },
   {  
      "name":"Піщанський район",
      "district":"Вінницька область",
      "country":"Україна",
      "latitude":48.23572739999999,
      "longitude":28.8871218
   },
   {  
      "name":"Погребищенський район",
      "district":"Вінницька область",
      "country":"Україна",
      "latitude":49.4586769,
      "longitude":29.2278708
   },
   {  
      "name":"Теплицький район",
      "district":"Вінницька область",
      "country":"Україна",
      "latitude":48.6385987,
      "longitude":29.6343463
   },
   {  
      "name":"Тиврівський район",
      "district":"Вінницька область",
      "country":"Україна",
      "latitude":48.9481957,
      "longitude":28.5108262
   },
   {  
      "name":"Томашпільський район",
      "district":"Вінницька область",
      "country":"Україна",
      "latitude":48.5204307,
      "longitude":28.4783398
   },
   {  
      "name":"Тростянецький район",
      "district":"Вінницька область",
      "country":"Україна",
      "latitude":48.5017668,
      "longitude":29.1845454
   },
   {  
      "name":"Тульчинський район",
      "district":"Вінницька область",
      "country":"Україна",
      "latitude":48.6915531,
      "longitude":28.8120078
   },
   {  
      "name":"Хмільницький район",
      "district":"Вінницька область",
      "country":"Україна",
      "latitude":49.6495676,
      "longitude":28.0259524
   },
   {  
      "name":"Чернівецький район",
      "district":"Вінницька область",
      "country":"Україна",
      "latitude":48.5128518,
      "longitude":28.1819806
   },
   {  
      "name":"Чечельницький район",
      "district":"Вінницька область",
      "country":"Україна",
      "latitude":48.2101708,
      "longitude":29.2935721
   },
   {  
      "name":"Шаргородський район",
      "district":"Вінницька область",
      "country":"Україна",
      "latitude":48.7263589,
      "longitude":28.1965816
   },
   {  
      "name":"Ямпільський район",
      "district":"Вінницька область",
      "country":"Україна",
      "latitude":48.2892756,
      "longitude":28.3702427
   },
   {  
      "name":"Луцьк",
      "district":"Волинська область",
      "country":"Україна",
      "latitude":50.74723299999999,
      "longitude":25.325383
   },
   {  
      "name":"Володимир-Волинський район",
      "district":"Волинська область",
      "country":"Україна",
      "latitude":50.8956572,
      "longitude":24.2358874
   },
   {  
      "name":"Горохівський район",
      "district":"Волинська область",
      "country":"Україна",
      "latitude":50.4670241,
      "longitude":24.8685716
   },
   {  
      "name":"Іваничівський район",
      "district":"Волинська область",
      "country":"Україна",
      "latitude":50.6470201,
      "longitude":24.3619114
   },
   {  
      "name":"Камінь-Каширський район",
      "district":"Волинська область",
      "country":"Україна",
      "latitude":51.6288118,
      "longitude":24.9688475
   },
   {  
      "name":"Ківерцівський район",
      "district":"Волинська область",
      "country":"Україна",
      "latitude":50.89233249999999,
      "longitude":25.7111426
   },
   {  
      "name":"Ковельський район",
      "district":"Волинська область",
      "country":"Україна",
      "latitude":51.157963,
      "longitude":24.9486783
   },
   {  
      "name":"Локачинський район",
      "district":"Волинська область",
      "country":"Україна",
      "latitude":50.7653066,
      "longitude":24.7213626
   },
   {  
      "name":"Луцький район",
      "district":"Волинська область",
      "country":"Україна",
      "latitude":50.6576915,
      "longitude":25.1931682
   },
   {  
      "name":"Любешівський район",
      "district":"Волинська область",
      "country":"Україна",
      "latitude":51.8012267,
      "longitude":25.2736635
   },
   {  
      "name":"Любомльський район",
      "district":"Волинська область",
      "country":"Україна",
      "latitude":51.2702924,
      "longitude":24.0436681
   },
   {  
      "name":"Маневицький район",
      "district":"Волинська область",
      "country":"Україна",
      "latitude":51.1156041,
      "longitude":25.7111295
   },
   {  
      "name":"Ратнівський район",
      "district":"Волинська область",
      "country":"Україна",
      "latitude":51.7157017,
      "longitude":24.4554706
   },
   {  
      "name":"Рожищенський район",
      "district":"Волинська область",
      "country":"Україна",
      "latitude":50.9301995,
      "longitude":25.1659688
   },
   {  
      "name":"Старовижівський район",
      "district":"Волинська область",
      "country":"Україна",
      "latitude":51.43976929999999,
      "longitude":24.4887593
   },
   {  
      "name":"Турійський район",
      "district":"Волинська область",
      "country":"Україна",
      "latitude":51.0914337,
      "longitude":24.4527511
   },
   {  
      "name":"Щацький район",
      "district":"Волинська область",
      "country":"Україна",
      "latitude":51.4968385,
      "longitude":23.8193566
   },
   {  
      "name":"Дніпро",
      "district":"Дніпропетровська область",
      "country":"Україна",
      "latitude":48.464717,
      "longitude":35.046183
   },
   {  
      "name":"Апостолівський район",
      "district":"Дніпропетровська область",
      "country":"Україна",
      "latitude":47.61242319999999,
      "longitude":33.8317154
   },
   {  
      "name":"Васильківський район",
      "district":"Дніпропетровська область",
      "country":"Україна",
      "latitude":48.26902399999999,
      "longitude":35.9592182
   },
   {  
      "name":"Верхньодніпровський район",
      "district":"Дніпропетровська область",
      "country":"Україна",
      "latitude":48.6482135,
      "longitude":34.336891
   },
   {  
      "name":"Дніпропетровський район",
      "district":"Дніпропетровська область",
      "country":"Україна",
      "latitude":48.3459295,
      "longitude":34.839163
   },
   {  
      "name":"Криворізький район",
      "district":"Дніпропетровська область",
      "country":"Україна",
      "latitude":47.98626840000001,
      "longitude":33.2365643
   },
   {  
      "name":"Криничанський район",
      "district":"Дніпропетровська область",
      "country":"Україна",
      "latitude":48.2742641,
      "longitude":34.2559609
   },
   {  
      "name":"Магдалинівський район",
      "district":"Дніпропетровська область",
      "country":"Україна",
      "latitude":48.9776332,
      "longitude":34.9908882
   },
   {  
      "name":"Межівський район",
      "district":"Дніпропетровська область",
      "country":"Україна",
      "latitude":48.2397269,
      "longitude":36.6665589
   },
   {  
      "name":"Нікопольський район",
      "district":"Дніпропетровська область",
      "country":"Україна",
      "latitude":47.7228237,
      "longitude":34.2961874
   },
   {  
      "name":"Новомосковський район",
      "district":"Дніпропетровська область",
      "country":"Україна",
      "latitude":48.82285940000001,
      "longitude":35.4335946
   },
   {  
      "name":"Павлоградський район",
      "district":"Дніпропетровська область",
      "country":"Україна",
      "latitude":48.6557962,
      "longitude":35.7748139
   },
   {  
      "name":"Петриківський район",
      "district":"Дніпропетровська область",
      "country":"Україна",
      "latitude":48.6812316,
      "longitude":34.6569276
   },
   {  
      "name":"Петропавлівський район",
      "district":"Дніпропетровська область",
      "country":"Україна",
      "latitude":48.41871709999999,
      "longitude":36.429969
   },
   {  
      "name":"Покровський район",
      "district":"Дніпропетровська область",
      "country":"Україна",
      "latitude":48.0032088,
      "longitude":36.3145658
   },
   {  
      "name":"П'ятихатський район",
      "district":"Дніпропетровська область",
      "country":"Україна",
      "latitude":48.411634,
      "longitude":33.6941624
   },
   {  
      "name":"Синельниківський район",
      "district":"Дніпропетровська область",
      "country":"Україна",
      "latitude":48.21588209999999,
      "longitude":35.4703533
   },
   {  
      "name":"Солонянський район",
      "district":"Дніпропетровська область",
      "country":"Україна",
      "latitude":48.1252986,
      "longitude":34.6925888
   },
   {  
      "name":"Софіївський район",
      "district":"Дніпропетровська область",
      "country":"Україна",
      "latitude":48.0279841,
      "longitude":33.920595
   },
   {  
      "name":"Томаківський район",
      "district":"Дніпропетровська область",
      "country":"Україна",
      "latitude":47.7331966,
      "longitude":34.7874894
   },
   {  
      "name":"Царичанський район",
      "district":"Дніпропетровська область",
      "country":"Україна",
      "latitude":48.9183905,
      "longitude":34.4967438
   },
   {  
      "name":"Широківський район",
      "district":"Дніпропетровська область",
      "country":"Україна",
      "latitude":47.6938287,
      "longitude":33.3173912
   },
   {  
      "name":"Юр'ївський район",
      "district":"Дніпропетровська область",
      "country":"Україна",
      "latitude":48.7766892,
      "longitude":35.9510803
   },
   {  
      "name":"Донецьк",
      "district":"Донецька область",
      "country":"Україна",
      "latitude":48.015883,
      "longitude":37.80285
   },
   {  
      "name":"Амвросіївський район",
      "district":"Донецька область",
      "country":"Україна",
      "latitude":47.8411823,
      "longitude":38.4328107
   },
   {  
      "name":"Артемівський район",
      "district":"Донецька область",
      "country":"Україна",
      "latitude":48.52025990000001,
      "longitude":38.1246275
   },
   {  
      "name":"Великоновосілківський район",
      "district":"Донецька область",
      "country":"Україна",
      "latitude":47.8052542,
      "longitude":36.8507431
   },
   {  
      "name":"Волноваський район",
      "district":"Донецька область",
      "country":"Україна",
      "latitude":47.6048789,
      "longitude":37.3826743
   },
   {  
      "name":"Володарський район",
      "district":"Донецька область",
      "country":"Україна",
      "latitude":47.2546951,
      "longitude":37.3470969
   },
   {  
      "name":"Добропільський район",
      "district":"Донецька область",
      "country":"Україна",
      "latitude":48.4940191,
      "longitude":37.2210937
   },
   {  
      "name":"Костянтинівський район",
      "district":"Донецька область",
      "country":"Україна",
      "latitude":48.4293115,
      "longitude":37.6357983
   },
   {  
      "name":"Красноармійський район",
      "district":"Донецька область",
      "country":"Україна",
      "latitude":48.17797909999999,
      "longitude":37.0789269
   },
   {  
      "name":"Краснолиманський район",
      "district":"Донецька область",
      "country":"Україна",
      "latitude":49.1483631,
      "longitude":37.7136804
   },
   {  
      "name":"Мангуський район",
      "district":"Донецька область",
      "country":"Україна",
      "latitude":47.0036169,
      "longitude":37.2945994
   },
   {  
      "name":"Мар'їнський район",
      "district":"Донецька область",
      "country":"Україна",
      "latitude":47.8995433,
      "longitude":37.3296549
   },
   {  
      "name":"Новоазовський район",
      "district":"Донецька область",
      "country":"Україна",
      "latitude":47.20729900000001,
      "longitude":37.9426008
   },
   {  
      "name":"Олександрівський район",
      "district":"Донецька область",
      "country":"Україна",
      "latitude":48.7160504,
      "longitude":36.8759093
   },
   {  
      "name":"Слов'янський район",
      "district":"Донецька область",
      "country":"Україна",
      "latitude":48.8707232,
      "longitude":37.4564219
   },
   {  
      "name":"Старобешівський район",
      "district":"Донецька область",
      "country":"Україна",
      "latitude":47.6628167,
      "longitude":38.0645787
   },
   {  
      "name":"Тельманівський район",
      "district":"Донецька область",
      "country":"Україна",
      "latitude":47.4021529,
      "longitude":37.9102902
   },
   {  
      "name":"Шахтарський район",
      "district":"Донецька область",
      "country":"Україна",
      "latitude":47.95142629999999,
      "longitude":38.9139227
   },
   {  
      "name":"Ясинуватський район",
      "district":"Донецька область",
      "country":"Україна",
      "latitude":48.20569829999999,
      "longitude":37.6746701
   },
   {  
      "name":"Житомир",
      "district":"Житомирська область",
      "country":"Україна",
      "latitude":50.25465,
      "longitude":28.6586669
   },
   {  
      "name":"Андрушівський район",
      "district":"Житомирська область",
      "country":"Україна",
      "latitude":50.0571542,
      "longitude":28.9986543
   },
   {  
      "name":"Баранівський район",
      "district":"Житомирська область",
      "country":"Україна",
      "latitude":50.3275094,
      "longitude":27.6410195
   },
   {  
      "name":"Бердичівський район",
      "district":"Житомирська область",
      "country":"Україна",
      "latitude":49.9825206,
      "longitude":28.6132661
   },
   {  
      "name":"Брусилівський район",
      "district":"Житомирська область",
      "country":"Україна",
      "latitude":50.2668529,
      "longitude":29.5433255
   },
   {  
      "name":"Володарсько-Волинський район",
      "district":"Житомирська область",
      "country":"Україна",
      "latitude":50.5933345,
      "longitude":28.4472707
   },
   {  
      "name":"Дзержинський район",
      "district":"Житомирська область",
      "country":"Україна",
      "latitude":50.8002305,
      "longitude":27.5617965
   },
   {  
      "name":"Ємільчинський район",
      "district":"Житомирська область",
      "country":"Україна",
      "latitude":50.9310321,
      "longitude":27.912836
   },
   {  
      "name":"Житомирський район",
      "district":"Житомирська область",
      "country":"Україна",
      "latitude":50.1827694,
      "longitude":28.5336233
   },
   {  
      "name":"Коростенський район",
      "district":"Житомирська область",
      "country":"Україна",
      "latitude":50.8643054,
      "longitude":28.6813105
   },
   {  
      "name":"Коростишівський район",
      "district":"Житомирська область",
      "country":"Україна",
      "latitude":50.294967,
      "longitude":29.1149652
   },
   {  
      "name":"Лугинський район",
      "district":"Житомирська область",
      "country":"Україна",
      "latitude":51.06057759999999,
      "longitude":28.2836175
   },
   {  
      "name":"Любарський район",
      "district":"Житомирська область",
      "country":"Україна",
      "latitude":49.9280449,
      "longitude":27.8082595
   },
   {  
      "name":"Малинський район",
      "district":"Житомирська область",
      "country":"Україна",
      "latitude":50.8378435,
      "longitude":29.1151519
   },
   {  
      "name":"Народицький район",
      "district":"Житомирська область",
      "country":"Україна",
      "latitude":51.2133815,
      "longitude":29.0750767
   },
   {  
      "name":"Новоград-Волинський район",
      "district":"Житомирська область",
      "country":"Україна",
      "latitude":50.6287767,
      "longitude":27.5132162
   },
   {  
      "name":"Овруцький район",
      "district":"Житомирська область",
      "country":"Україна",
      "latitude":51.35455049999999,
      "longitude":28.3765747
   },
   {  
      "name":"Олевський район",
      "district":"Житомирська область",
      "country":"Україна",
      "latitude":51.3376661,
      "longitude":27.741275
   },
   {  
      "name":"Попільнянський район",
      "district":"Житомирська область",
      "country":"Україна",
      "latitude":49.9975143,
      "longitude":29.54009469999999
   },
   {  
      "name":"Радомишльський район",
      "district":"Житомирська область",
      "country":"Україна",
      "latitude":50.5335872,
      "longitude":29.2326404
   },
   {  
      "name":"Ружинський район",
      "district":"Житомирська область",
      "country":"Україна",
      "latitude":49.7254855,
      "longitude":29.22926259999999
   },
   {  
      "name":"Червоноармійський район",
      "district":"Житомирська область",
      "country":"Україна",
      "latitude":50.44573519999999,
      "longitude":28.2187488
   },
   {  
      "name":"Черняхівський район",
      "district":"Житомирська область",
      "country":"Україна",
      "latitude":50.4910739,
      "longitude":28.7243753
   },
   {  
      "name":"Чуднівський район",
      "district":"Житомирська область",
      "country":"Україна",
      "latitude":49.9368512,
      "longitude":28.1144968
   },
   {  
      "name":"Ужгород",
      "district":"Закарпатська область",
      "country":"Україна",
      "latitude":48.6208,
      "longitude":22.287883
   },
   {  
      "name":"Берегівський район",
      "district":"Закарпатська область",
      "country":"Україна",
      "latitude":48.2351161,
      "longitude":22.5802865
   },
   {  
      "name":"Великоберезнянський район",
      "district":"Закарпатська область",
      "country":"Україна",
      "latitude":48.949923,
      "longitude":22.6928686
   },
   {  
      "name":"Виноградівський район",
      "district":"Закарпатська область",
      "country":"Україна",
      "latitude":48.1198232,
      "longitude":23.0318181
   },
   {  
      "name":"Воловецький район",
      "district":"Закарпатська область",
      "country":"Україна",
      "latitude":48.784336,
      "longitude":23.07877
   },
   {  
      "name":"Іршавський район",
      "district":"Закарпатська область",
      "country":"Україна",
      "latitude":48.35636,
      "longitude":23.1045732
   },
   {  
      "name":"Міжгірський район",
      "district":"Закарпатська область",
      "country":"Україна",
      "latitude":48.5937008,
      "longitude":23.5738109
   },
   {  
      "name":"Мукачівський район",
      "district":"Закарпатська область",
      "country":"Україна",
      "latitude":48.5206301,
      "longitude":22.723114
   },
   {  
      "name":"Перечинський район",
      "district":"Закарпатська область",
      "country":"Україна",
      "latitude":48.7103633,
      "longitude":22.6221479
   },
   {  
      "name":"Рахівський район",
      "district":"Закарпатська область",
      "country":"Україна",
      "latitude":48.1391697,
      "longitude":24.2936895
   },
   {  
      "name":"Свалявський район",
      "district":"Закарпатська область",
      "country":"Україна",
      "latitude":48.5458678,
      "longitude":23.0056487
   },
   {  
      "name":"Тячівський район",
      "district":"Закарпатська область",
      "country":"Україна",
      "latitude":48.2370369,
      "longitude":23.8528469
   },
   {  
      "name":"Ужгородський район",
      "district":"Закарпатська область",
      "country":"Україна",
      "latitude":48.529475,
      "longitude":22.3736162
   },
   {  
      "name":"Хустський район",
      "district":"Закарпатська область",
      "country":"Україна",
      "latitude":48.2856494,
      "longitude":23.4356427
   },
   {  
      "name":"Запоріжжя",
      "district":"Запорізька область",
      "country":"Україна",
      "latitude":47.8388,
      "longitude":35.139567
   },
   {  
      "name":"Бердянський район",
      "district":"Запорізька область",
      "country":"Україна",
      "latitude":47.05564030000001,
      "longitude":36.7980209
   },
   {  
      "name":"Василівський район",
      "district":"Запорізька область",
      "country":"Україна",
      "latitude":47.4263116,
      "longitude":35.1552492
   },
   {  
      "name":"Великобілозерський район",
      "district":"Запорізька область",
      "country":"Україна",
      "latitude":47.2186081,
      "longitude":34.6661709
   },
   {  
      "name":"Веселівський район",
      "district":"Запорізька область",
      "country":"Україна",
      "latitude":46.9947905,
      "longitude":34.8658177
   },
   {  
      "name":"Вільнянський район",
      "district":"Запорізька область",
      "country":"Україна",
      "latitude":47.9587398,
      "longitude":35.4286548
   },
   {  
      "name":"Гуляйпільський район",
      "district":"Запорізька область",
      "country":"Україна",
      "latitude":47.7182506,
      "longitude":36.4716267
   },
   {  
      "name":"Запорізький район",
      "district":"Запорізька область",
      "country":"Україна",
      "latitude":47.7185487,
      "longitude":35.0873813
   },
   {  
      "name":"Кам'янсько-Дніпровський район",
      "district":"Запорізька область",
      "country":"Україна",
      "latitude":47.418019,
      "longitude":34.6667487
   },
   {  
      "name":"Куйбишевський район",
      "district":"Запорізька область",
      "country":"Україна",
      "latitude":47.3373042,
      "longitude":36.6456671
   },
   {  
      "name":"Мелітопольський район",
      "district":"Запорізька область",
      "country":"Україна",
      "latitude":46.943014,
      "longitude":35.2660852
   },
   {  
      "name":"Михайлівський район",
      "district":"Запорізька область",
      "country":"Україна",
      "latitude":47.19501109999999,
      "longitude":35.3061096
   },
   {  
      "name":"Новомиколаївський район",
      "district":"Запорізька область",
      "country":"Україна",
      "latitude":47.96269059999999,
      "longitude":35.9249526
   },
   {  
      "name":"Оріхівський район",
      "district":"Запорізька область",
      "country":"Україна",
      "latitude":47.6478105,
      "longitude":35.7945865
   },
   {  
      "name":"Пологівський район",
      "district":"Запорізька область",
      "country":"Україна",
      "latitude":47.45447009999999,
      "longitude":36.32772180000001
   },
   {  
      "name":"Приазовський район",
      "district":"Запорізька область",
      "country":"Україна",
      "latitude":46.7454316,
      "longitude":35.6972773
   },
   {  
      "name":"Приморський район",
      "district":"Запорізька область",
      "country":"Україна",
      "latitude":46.85392350000001,
      "longitude":36.2549869
   },
   {  
      "name":"Розівський район",
      "district":"Запорізька область",
      "country":"Україна",
      "latitude":47.4671664,
      "longitude":36.9644676
   },
   {  
      "name":"Токмацький район",
      "district":"Запорізька область",
      "country":"Україна",
      "latitude":47.3347032,
      "longitude":35.6660926
   },
   {  
      "name":"Чернігівський район",
      "district":"Запорізька область",
      "country":"Україна",
      "latitude":47.1434277,
      "longitude":36.1955794
   },
   {  
      "name":"Якимівський район",
      "district":"Запорізька область",
      "country":"Україна",
      "latitude":46.5748735,
      "longitude":35.0608488
   },
   {  
      "name":"Івано-Франківськ",
      "district":"Івано-Франківська область",
      "country":"Україна",
      "latitude":48.922633,
      "longitude":24.711117
   },
   {  
      "name":"Богородчанський район",
      "district":"Івано-Франківська область",
      "country":"Україна",
      "latitude":48.7545926,
      "longitude":24.3864501
   },
   {  
      "name":"Болехівський район",
      "district":"Івано-Франківська область",
      "country":"Україна",
      "latitude":49.0702518,
      "longitude":23.8543141
   },
   {  
      "name":"Верховинський район",
      "district":"Івано-Франківська область",
      "country":"Україна",
      "latitude":48.0615596,
      "longitude":24.8211382
   },
   {  
      "name":"Галицький район",
      "district":"Івано-Франківська область",
      "country":"Україна",
      "latitude":49.180056,
      "longitude":24.7794866
   },
   {  
      "name":"Городенківський район",
      "district":"Івано-Франківська область",
      "country":"Україна",
      "latitude":48.6892031,
      "longitude":25.4137146
   },
   {  
      "name":"Долинський район",
      "district":"Івано-Франківська область",
      "country":"Україна",
      "latitude":48.878812,
      "longitude":23.8262641
   },
   {  
      "name":"Калуський район",
      "district":"Івано-Франківська область",
      "country":"Україна",
      "latitude":49.1132204,
      "longitude":24.4098062
   },
   {  
      "name":"Коломийський район",
      "district":"Івано-Франківська область",
      "country":"Україна",
      "latitude":48.6272976,
      "longitude":24.9454642
   },
   {  
      "name":"Косівський район",
      "district":"Івано-Франківська область",
      "country":"Україна",
      "latitude":48.3181015,
      "longitude":24.9937597
   },
   {  
      "name":"Надвірнянський район",
      "district":"Івано-Франківська область",
      "country":"Україна",
      "latitude":48.56301999999999,
      "longitude":24.4803568
   },
   {  
      "name":"Рогатинський район",
      "district":"Івано-Франківська область",
      "country":"Україна",
      "latitude":49.3999385,
      "longitude":24.5712106
   },
   {  
      "name":"Рожнятівський район",
      "district":"Івано-Франківська область",
      "country":"Україна",
      "latitude":48.8526332,
      "longitude":24.1386159
   },
   {  
      "name":"Снятинський район",
      "district":"Івано-Франківська область",
      "country":"Україна",
      "latitude":48.5232617,
      "longitude":25.3917373
   },
   {  
      "name":"Тисменицький район",
      "district":"Івано-Франківська область",
      "country":"Україна",
      "latitude":48.9271025,
      "longitude":24.8515173
   },
   {  
      "name":"Тлумацький район",
      "district":"Івано-Франківська область",
      "country":"Україна",
      "latitude":48.8641269,
      "longitude":25.0317585
   },
   {  
      "name":"Київ",
      "district":"Україна",
      "country":"02000",
      "latitude":50.4501,
      "longitude":30.5234
   },
   {  
      "name":"Баришівський район",
      "district":"Київська обл.",
      "country":"Україна",
      "latitude":50.350705,
      "longitude":31.3188908
   },
   {  
      "name":"Білоцерквівський район",
      "district":"Київська обл.",
      "country":"Україна",
      "latitude":49.6670552,
      "longitude":30.0745315
   },
   {  
      "name":"Богуславський район",
      "district":"Київська обл.",
      "country":"Україна",
      "latitude":49.534462,
      "longitude":30.8407573
   },
   {  
      "name":"Бориспільський район",
      "district":"Київська обл.",
      "country":"Україна",
      "latitude":50.2032065,
      "longitude":31.0281662
   },
   {  
      "name":"Бородянський район",
      "district":"Київська обл.",
      "country":"Україна",
      "latitude":50.6417461,
      "longitude":29.8233796
   },
   {  
      "name":"Броварський район",
      "district":"Київська обл.",
      "country":"Україна",
      "latitude":50.6259481,
      "longitude":30.9894871
   },
   {  
      "name":"Васильківський район",
      "district":"Київська обл.",
      "country":"Україна",
      "latitude":50.0696473,
      "longitude":30.2407567
   },
   {  
      "name":"Вишгородський район",
      "district":"Київська обл.",
      "country":"Україна",
      "latitude":50.583217,
      "longitude":30.485667
   },
   {  
      "name":"Володарський район",
      "district":"Київська обл.",
      "country":"Україна",
      "latitude":49.5327609,
      "longitude":29.91746659999999
   },
   {  
      "name":"Згурівський район",
      "district":"Київська обл.",
      "country":"Україна",
      "latitude":50.4982106,
      "longitude":31.8752349
   },
   {  
      "name":"Іванківський район",
      "district":"Київська обл.",
      "country":"Україна",
      "latitude":50.9651021,
      "longitude":29.8092904
   },
   {  
      "name":"Кагарлицький район",
      "district":"Київська обл.",
      "country":"Україна",
      "latitude":49.9018355,
      "longitude":30.8185813
   },
   {  
      "name":"Києво-Святошинський район",
      "district":"34",
      "country":"Вишневе",
      "latitude":50.3892514,
      "longitude":30.362464
   },
   {  
      "name":"Макарівський район",
      "district":"Київська обл.",
      "country":"Україна",
      "latitude":50.4212737,
      "longitude":29.7997472
   },
   {  
      "name":"Миронівський район",
      "district":"Київська обл.",
      "country":"Україна",
      "latitude":49.73335489999999,
      "longitude":31.0825646
   },
   {  
      "name":"Обухівський район",
      "district":"Київська обл.",
      "country":"Україна",
      "latitude":50.1372627,
      "longitude":30.6334063
   },
   {  
      "name":"Переяслав-Хмельницький район",
      "district":"Київська обл.",
      "country":"Україна",
      "latitude":50.0299479,
      "longitude":31.6068944
   },
   {  
      "name":"Поліський район",
      "district":"Київська обл.",
      "country":"Україна",
      "latitude":51.23601600000001,
      "longitude":29.494001
   },
   {  
      "name":"Рокитнянський район",
      "district":"Київська обл.",
      "country":"Україна",
      "latitude":49.7016223,
      "longitude":30.577466
   },
   {  
      "name":"Сквирський район",
      "district":"Київська обл.",
      "country":"Україна",
      "latitude":49.7648303,
      "longitude":29.7298303
   },
   {  
      "name":"Ставищенський район",
      "district":"Київська обл.",
      "country":"Україна",
      "latitude":49.4675287,
      "longitude":30.14596169999999
   },
   {  
      "name":"Таращанський район",
      "district":"Київська обл.",
      "country":"Україна",
      "latitude":49.468378,
      "longitude":30.4530932
   },
   {  
      "name":"Тетіївський район",
      "district":"Київська обл.",
      "country":"Україна",
      "latitude":49.2992538,
      "longitude":29.797775
   },
   {  
      "name":"Фастівський район",
      "district":"Київська обл.",
      "country":"Україна",
      "latitude":50.0091305,
      "longitude":29.8989518
   },
   {  
      "name":"Яготинський район",
      "district":"Київська обл.",
      "country":"Україна",
      "latitude":50.2283622,
      "longitude":31.85626839999999
   },
   {  
      "name":"Кіровоград",
      "district":"Кіровоградська область",
      "country":"Україна",
      "latitude":48.50793300000001,
      "longitude":32.262317
   },
   {  
      "name":"Бобринецький район",
      "district":"Кіровоградська область",
      "country":"Україна",
      "latitude":47.965049,
      "longitude":32.0531064
   },
   {  
      "name":"Вільшанський район",
      "district":"Кіровоградська область",
      "country":"Україна",
      "latitude":48.2843989,
      "longitude":30.8581115
   },
   {  
      "name":"Гайворонський район",
      "district":"Кіровоградська область",
      "country":"Україна",
      "latitude":48.2825259,
      "longitude":29.9626764
   },
   {  
      "name":"Голованівський район",
      "district":"Кіровоградська область",
      "country":"Україна",
      "latitude":48.3823905,
      "longitude":30.5256849
   },
   {  
      "name":"Добровеличківський район",
      "district":"Кіровоградська область",
      "country":"Україна",
      "latitude":48.3808044,
      "longitude":31.1254098
   },
   {  
      "name":"Долинський район",
      "district":"Кіровоградська область",
      "country":"Україна",
      "latitude":48.1904107,
      "longitude":32.8805727
   },
   {  
      "name":"Знам'янський район",
      "district":"Кіровоградська область",
      "country":"Україна",
      "latitude":48.7819729,
      "longitude":32.7092173
   },
   {  
      "name":"Кіровоградський район",
      "district":"Кіровоградська область",
      "country":"Україна",
      "latitude":48.4345771,
      "longitude":32.108746
   },
   {  
      "name":"Компаніївський район",
      "district":"Кіровоградська область",
      "country":"Україна",
      "latitude":48.238342,
      "longitude":32.1685611
   },
   {  
      "name":"Маловисківський район",
      "district":"Кіровоградська область",
      "country":"Україна",
      "latitude":48.6056082,
      "longitude":31.5535445
   },
   {  
      "name":"Новгородківський район",
      "district":"Кіровоградська область",
      "country":"Україна",
      "latitude":48.4221628,
      "longitude":32.7136301
   },
   {  
      "name":"Новоархангельський район",
      "district":"Кіровоградська область",
      "country":"Україна",
      "latitude":48.64327919999999,
      "longitude":30.8376079
   },
   {  
      "name":"Новомиргородський район",
      "district":"Кіровоградська область",
      "country":"Україна",
      "latitude":48.7992127,
      "longitude":31.7944552
   },
   {  
      "name":"Новоукраїнський район",
      "district":"Кіровоградська область",
      "country":"Україна",
      "latitude":48.31104910000001,
      "longitude":31.6472197
   },
   {  
      "name":"Олександрівський район",
      "district":"Кіровоградська область",
      "country":"Україна",
      "latitude":48.9230008,
      "longitude":32.2622014
   },
   {  
      "name":"Олександрійський район",
      "district":"Кіровоградська область",
      "country":"Україна",
      "latitude":48.6660361,
      "longitude":33.3481867
   },
   {  
      "name":"Онуфріївський район",
      "district":"Кіровоградська область",
      "country":"Україна",
      "latitude":48.854687,
      "longitude":33.5998351
   },
   {  
      "name":"Петрівський район",
      "district":"Кіровоградська область",
      "country":"Україна",
      "latitude":48.34297830000001,
      "longitude":33.2369798
   },
   {  
      "name":"Світловодський район",
      "district":"Кіровоградська область",
      "country":"Україна",
      "latitude":49.036524,
      "longitude":33.0413443
   },
   {  
      "name":"Ульяновський район",
      "district":"Кіровоградська область",
      "country":"Україна",
      "latitude":48.2841563,
      "longitude":30.2606566
   },
   {  
      "name":"Устинівський район",
      "district":"Кіровоградська область",
      "country":"Україна",
      "latitude":47.93926320000001,
      "longitude":32.5560249
   },
   {  
      "name":"Луганськ",
      "district":"Луганська область",
      "country":"Україна",
      "latitude":48.574041,
      "longitude":39.307815
   },
   {  
      "name":"Антрацитівський район",
      "district":"Луганська область",
      "country":"Україна",
      "latitude":48.2379122,
      "longitude":39.0732889
   },
   {  
      "name":"Біловодський район",
      "district":"Луганська область",
      "country":"Україна",
      "latitude":49.1810793,
      "longitude":39.5547852
   },
   {  
      "name":"Білокуракинський район",
      "district":"Луганська область",
      "country":"Україна",
      "latitude":49.6342894,
      "longitude":38.6653799
   },
   {  
      "name":"Краснодонський район",
      "district":"Луганська область",
      "country":"Україна",
      "latitude":48.4325875,
      "longitude":39.7516974
   },
   {  
      "name":"Кремінський район",
      "district":"Луганська область",
      "country":"Україна",
      "latitude":49.1388583,
      "longitude":38.22761819999999
   },
   {  
      "name":"Лутугинський район",
      "district":"Луганська область",
      "country":"Україна",
      "latitude":48.3941148,
      "longitude":39.1520599
   },
   {  
      "name":"Марківський район",
      "district":"Луганська область",
      "country":"Україна",
      "latitude":49.49232550000001,
      "longitude":39.617514
   },
   {  
      "name":"Міловський район",
      "district":"Луганська область",
      "country":"Україна",
      "latitude":49.4088703,
      "longitude":39.9379353
   },
   {  
      "name":"Новоайдарський район",
      "district":"Луганська область",
      "country":"Україна",
      "latitude":48.9457299,
      "longitude":39.0749461
   },
   {  
      "name":"Новопсковський район",
      "district":"Луганська область",
      "country":"Україна",
      "latitude":49.67008089999999,
      "longitude":39.1790911
   },
   {  
      "name":"Перевальський район",
      "district":"Луганська область",
      "country":"Україна",
      "latitude":48.3838436,
      "longitude":38.6500748
   },
   {  
      "name":"Попаснянський район",
      "district":"Луганська область",
      "country":"Україна",
      "latitude":48.7940522,
      "longitude":38.38466760000001
   },
   {  
      "name":"Сватівський район",
      "district":"Луганська область",
      "country":"Україна",
      "latitude":49.493718,
      "longitude":38.1698866
   },
   {  
      "name":"Свердловський район",
      "district":"Луганська область",
      "country":"Україна",
      "latitude":47.9232801,
      "longitude":39.6152142
   },
   {  
      "name":"Слов'яносербський район",
      "district":"Луганська область",
      "country":"Україна",
      "latitude":48.6372521,
      "longitude":39.0169496
   },
   {  
      "name":"Станично-Луганський район",
      "district":"Луганська область",
      "country":"Україна",
      "latitude":48.8212401,
      "longitude":39.4995097
   },
   {  
      "name":"Старобільський район",
      "district":"Луганська область",
      "country":"Україна",
      "latitude":49.2348379,
      "longitude":38.82843760000001
   },
   {  
      "name":"Троїцький район",
      "district":"Луганська область",
      "country":"Україна",
      "latitude":49.81570079999999,
      "longitude":38.3251842
   },
   {  
      "name":"Львів",
      "district":"Львівська область",
      "country":"Україна",
      "latitude":49.839683,
      "longitude":24.029717
   },
   {  
      "name":"Бродівський район",
      "district":"Львівська область",
      "country":"Україна",
      "latitude":50.0713909,
      "longitude":25.0612552
   },
   {  
      "name":"Буський район",
      "district":"Львівська область",
      "country":"Україна",
      "latitude":49.9802665,
      "longitude":24.6939845
   },
   {  
      "name":"Городоцький район",
      "district":"Львівська область",
      "country":"Україна",
      "latitude":49.7714509,
      "longitude":23.6730132
   },
   {  
      "name":"Дрогобицький район",
      "district":"Львівська область",
      "country":"Україна",
      "latitude":49.33654629999999,
      "longitude":23.2903202
   },
   {  
      "name":"Жидачівський район",
      "district":"Львівська область",
      "country":"Україна",
      "latitude":49.3794498,
      "longitude":24.2778254
   },
   {  
      "name":"Жовківський район",
      "district":"Львівська область",
      "country":"Україна",
      "latitude":50.1603676,
      "longitude":23.8831487
   },
   {  
      "name":"Золочівський район",
      "district":"Львівська область",
      "country":"Україна",
      "latitude":49.7840108,
      "longitude":24.7901478
   },
   {  
      "name":"Кам'янсько-Бузький район",
      "district":"Львівська область",
      "country":"Україна",
      "latitude":50.0582395,
      "longitude":24.3468008
   },
   {  
      "name":"Миколаївський район",
      "district":"Львівська область",
      "country":"Україна",
      "latitude":49.5269765,
      "longitude":24.0012348
   },
   {  
      "name":"Мостиський район",
      "district":"Львівська область",
      "country":"Україна",
      "latitude":49.8026728,
      "longitude":23.1469243
   },
   {  
      "name":"Перемишлянський район",
      "district":"Львівська область",
      "country":"Україна",
      "latitude":49.6664294,
      "longitude":24.5415809
   },
   {  
      "name":"Пустомитівський район",
      "district":"Львівська область",
      "country":"Україна",
      "latitude":49.6964415,
      "longitude":24.0171142
   },
   {  
      "name":"Радехівський район",
      "district":"Львівська область",
      "country":"Україна",
      "latitude":50.2495451,
      "longitude":24.6643405
   },
   {  
      "name":"Самбірський район",
      "district":"Львівська область",
      "country":"Україна",
      "latitude":49.578198,
      "longitude":23.3664274
   },
   {  
      "name":"Сколівський район",
      "district":"Львівська область",
      "country":"Україна",
      "latitude":48.97596,
      "longitude":23.3773672
   },
   {  
      "name":"Сокальський район",
      "district":"Львівська область",
      "country":"Україна",
      "latitude":50.3793483,
      "longitude":24.0813217
   },
   {  
      "name":"Старосамбірський район",
      "district":"Львівська область",
      "country":"Україна",
      "latitude":49.5048262,
      "longitude":22.8988386
   },
   {  
      "name":"Стрийський район",
      "district":"Львівська область",
      "country":"Україна",
      "latitude":49.1895728,
      "longitude":23.9696785
   },
   {  
      "name":"Турківський район",
      "district":"Львівська область",
      "country":"Україна",
      "latitude":49.0475158,
      "longitude":23.0403066
   },
   {  
      "name":"Яворівський район",
      "district":"Львівська область",
      "country":"Україна",
      "latitude":50.015466,
      "longitude":23.5466891
   },
   {  
      "name":"Миколаїв",
      "district":"Миколаївська область",
      "country":"Україна",
      "latitude":46.975033,
      "longitude":31.99458289999999
   },
   {  
      "name":"Арбузинський район",
      "district":"Миколаївська область",
      "country":"Україна",
      "latitude":47.9906628,
      "longitude":31.2529425
   },
   {  
      "name":"Баштанський район",
      "district":"Миколаївська область",
      "country":"Україна",
      "latitude":47.31607349999999,
      "longitude":32.444461
   },
   {  
      "name":"Березанський район",
      "district":"Миколаївська область",
      "country":"Україна",
      "latitude":46.8400972,
      "longitude":31.3306037
   },
   {  
      "name":"Березнегуватський район",
      "district":"Миколаївська область",
      "country":"Україна",
      "latitude":47.3231831,
      "longitude":32.8327587
   },
   {  
      "name":"Братський район",
      "district":"Миколаївська область",
      "country":"Україна",
      "latitude":47.8908057,
      "longitude":31.581634
   },
   {  
      "name":"Веселинівський район",
      "district":"Миколаївська область",
      "country":"Україна",
      "latitude":47.2844618,
      "longitude":31.2849276
   },
   {  
      "name":"Вознесенський район",
      "district":"Миколаївська область",
      "country":"Україна",
      "latitude":47.5703127,
      "longitude":31.486504
   },
   {  
      "name":"Врадіївський район",
      "district":"Миколаївська область",
      "country":"Україна",
      "latitude":47.7672135,
      "longitude":30.5379907
   },
   {  
      "name":"Доманівський район",
      "district":"Миколаївська область",
      "country":"Україна",
      "latitude":47.6379823,
      "longitude":30.9742588
   },
   {  
      "name":"Єланецький район",
      "district":"Миколаївська область",
      "country":"Україна",
      "latitude":47.6930504,
      "longitude":31.9391046
   },
   {  
      "name":"Жовтневий район",
      "district":"Миколаївська область",
      "country":"Україна",
      "latitude":46.986235,
      "longitude":32.2507696
   },
   {  
      "name":"Казанківський район",
      "district":"Миколаївська область",
      "country":"Україна",
      "latitude":47.7374508,
      "longitude":32.9108632
   },
   {  
      "name":"Кривоозерський район",
      "district":"Миколаївська область",
      "country":"Україна",
      "latitude":48.05756,
      "longitude":30.4385196
   },
   {  
      "name":"Миколаївський район",
      "district":"Миколаївська область",
      "country":"Україна",
      "latitude":47.0573836,
      "longitude":31.745058
   },
   {  
      "name":"Новобузький район",
      "district":"Миколаївська область",
      "country":"Україна",
      "latitude":47.6196849,
      "longitude":32.4528276
   },
   {  
      "name":"Новоодеський район",
      "district":"Миколаївська область",
      "country":"Україна",
      "latitude":47.3408026,
      "longitude":31.9492708
   },
   {  
      "name":"Очаківський район",
      "district":"Миколаївська область",
      "country":"Україна",
      "latitude":46.6476947,
      "longitude":31.6795413
   },
   {  
      "name":"Первомайський район",
      "district":"Миколаївська область",
      "country":"Україна",
      "latitude":47.9280051,
      "longitude":30.8780284
   },
   {  
      "name":"Снігурівський район",
      "district":"Миколаївська область",
      "country":"Україна",
      "latitude":47.0078967,
      "longitude":32.7285363
   },
   {  
      "name":"Одеса",
      "district":"Одеська область",
      "country":"Україна",
      "latitude":46.482526,
      "longitude":30.7233095
   },
   {  
      "name":"Ананьївський район",
      "district":"Одеська область",
      "country":"Україна",
      "latitude":47.6684926,
      "longitude":29.9831708
   },
   {  
      "name":"Арцизький район",
      "district":"Одеська область",
      "country":"Україна",
      "latitude":45.8779104,
      "longitude":29.2841552
   },
   {  
      "name":"Балтський район",
      "district":"Одеська область",
      "country":"Україна",
      "latitude":47.9719585,
      "longitude":29.6778556
   },
   {  
      "name":"Березівський район",
      "district":"Одеська область",
      "country":"Україна",
      "latitude":47.15931699999999,
      "longitude":30.8401283
   },
   {  
      "name":"Білгород-Дністровський район",
      "district":"Одеська область",
      "country":"Україна",
      "latitude":46.1823527,
      "longitude":30.1178226
   },
   {  
      "name":"Біляївський район",
      "district":"Одеська область",
      "country":"Україна",
      "latitude":46.5584709,
      "longitude":30.2732784
   },
   {  
      "name":"Болградський район",
      "district":"Одеська область",
      "country":"Україна",
      "latitude":45.7290886,
      "longitude":28.7779354
   },
   {  
      "name":"Великомихайлівський район",
      "district":"Одеська область",
      "country":"Україна",
      "latitude":47.0928171,
      "longitude":29.8948423
   },
   {  
      "name":"Іванівський район",
      "district":"Одеська область",
      "country":"Україна",
      "latitude":46.9058395,
      "longitude":30.538491
   },
   {  
      "name":"Ізмаїльський район",
      "district":"Одеська область",
      "country":"Україна",
      "latitude":45.5171309,
      "longitude":28.9502649
   },
   {  
      "name":"Кілійський район",
      "district":"Одеська область",
      "country":"Україна",
      "latitude":45.5557992,
      "longitude":29.4010331
   },
   {  
      "name":"Кодимський район",
      "district":"Одеська область",
      "country":"Україна",
      "latitude":48.0780316,
      "longitude":29.1448609
   },
   {  
      "name":"Комінтернівський район",
      "district":"Одеська область",
      "country":"Україна",
      "latitude":46.7790482,
      "longitude":30.9655714
   },
   {  
      "name":"Котовський район",
      "district":"Одеська область",
      "country":"Україна",
      "latitude":47.6658817,
      "longitude":29.6901147
   },
   {  
      "name":"Красноокнянський район",
      "district":"Одеська область",
      "country":"Україна",
      "latitude":47.51860490000001,
      "longitude":29.4502863
   },
   {  
      "name":"Любашівський район",
      "district":"Одеська область",
      "country":"Україна",
      "latitude":47.7664588,
      "longitude":30.2432848
   },
   {  
      "name":"Миколаївський район",
      "district":"Одеська область",
      "country":"Україна",
      "latitude":47.4784546,
      "longitude":30.6359674
   },
   {  
      "name":"Овідіопольський район",
      "district":"Одеська область",
      "country":"Україна",
      "latitude":46.3398176,
      "longitude":30.44312399999999
   },
   {  
      "name":"Ренійський район",
      "district":"Одеська область",
      "country":"Україна",
      "latitude":45.3850074,
      "longitude":28.5363783
   },
   {  
      "name":"Роздільнянський район",
      "district":"Одеська область",
      "country":"Україна",
      "latitude":46.8414095,
      "longitude":30.1756639
   },
   {  
      "name":"Савранський район",
      "district":"Одеська область",
      "country":"Україна",
      "latitude":48.0882434,
      "longitude":30.0316872
   },
   {  
      "name":"Саратський район",
      "district":"Одеська область",
      "country":"Україна",
      "latitude":46.0706066,
      "longitude":29.7791305
   },
   {  
      "name":"Тарутинський район",
      "district":"Одеська область",
      "country":"Україна",
      "latitude":46.26579950000001,
      "longitude":29.2364972
   },
   {  
      "name":"Татарбунарський район",
      "district":"Одеська область",
      "country":"Україна",
      "latitude":45.76000029999999,
      "longitude":29.70125809999999
   },
   {  
      "name":"Фрунзівський район",
      "district":"Одеська область",
      "country":"Україна",
      "latitude":47.3139693,
      "longitude":29.7191404
   },
   {  
      "name":"Ширяївський район",
      "district":"Одеська область",
      "country":"Україна",
      "latitude":47.3495378,
      "longitude":30.192694
   },
   {  
      "name":"Полтава",
      "district":"Полтавська область",
      "country":"Україна",
      "latitude":49.58826699999999,
      "longitude":34.5514169
   },
   {  
      "name":"Великобагачанський район",
      "district":"Полтавська область",
      "country":"Україна",
      "latitude":49.7098332,
      "longitude":33.778072
   },
   {  
      "name":"Гадяцький район",
      "district":"Полтавська область",
      "country":"Україна",
      "latitude":50.3085292,
      "longitude":33.9298353
   },
   {  
      "name":"Глобинський район",
      "district":"Полтавська область",
      "country":"Україна",
      "latitude":49.3641054,
      "longitude":33.15243
   },
   {  
      "name":"Гребінківський район",
      "district":"Полтавська область",
      "country":"Україна",
      "latitude":50.151238,
      "longitude":32.403124
   },
   {  
      "name":"Диканський район",
      "district":"Полтавська область",
      "country":"Україна",
      "latitude":49.84949210000001,
      "longitude":34.46766059999999
   },
   {  
      "name":"Зіньківський район",
      "district":"Полтавська область",
      "country":"Україна",
      "latitude":50.142571,
      "longitude":34.2882109
   },
   {  
      "name":"Карлівський район",
      "district":"Полтавська область",
      "country":"Україна",
      "latitude":49.4142924,
      "longitude":35.1945883
   },
   {  
      "name":"Кобеляцький район",
      "district":"Полтавська область",
      "country":"Україна",
      "latitude":49.03133949999999,
      "longitude":34.16275
   },
   {  
      "name":"Козельщинський район",
      "district":"Полтавська область",
      "country":"Україна",
      "latitude":49.2434988,
      "longitude":33.8005479
   },
   {  
      "name":"Котелевський район",
      "district":"Полтавська область",
      "country":"Україна",
      "latitude":50.1018529,
      "longitude":34.8217513
   },
   {  
      "name":"Кременчуцький район",
      "district":"Полтавська область",
      "country":"Україна",
      "latitude":49.1340417,
      "longitude":33.3705246
   },
   {  
      "name":"Лохвицький район",
      "district":"Полтавська область",
      "country":"Україна",
      "latitude":50.3303866,
      "longitude":33.2934074
   },
   {  
      "name":"Лубенський район",
      "district":"Полтавська область",
      "country":"Україна",
      "latitude":50.0988924,
      "longitude":33.1499144
   },
   {  
      "name":"Машівський район",
      "district":"Полтавська область",
      "country":"Україна",
      "latitude":49.42995939999999,
      "longitude":34.8820649
   },
   {  
      "name":"Миргородський район",
      "district":"Полтавська область",
      "country":"Україна",
      "latitude":50.0516787,
      "longitude":33.5808344
   },
   {  
      "name":"Новосанжарський район",
      "district":"Полтавська область",
      "country":"Україна",
      "latitude":49.38194319999999,
      "longitude":34.4825233
   },
   {  
      "name":"Оржицький район",
      "district":"Полтавська область",
      "country":"Україна",
      "latitude":49.8761979,
      "longitude":32.6941689
   },
   {  
      "name":"Пирятинський район",
      "district":"Полтавська область",
      "country":"Україна",
      "latitude":50.3185539,
      "longitude":32.4568941
   },
   {  
      "name":"Полтавський район",
      "district":"Полтавська область",
      "country":"Україна",
      "latitude":49.5696492,
      "longitude":34.7448289
   },
   {  
      "name":"Решетилівський район",
      "district":"Полтавська область",
      "country":"Україна",
      "latitude":49.533612,
      "longitude":34.0316869
   },
   {  
      "name":"Семенівський район",
      "district":"Полтавська область",
      "country":"Україна",
      "latitude":49.601637,
      "longitude":32.9815386
   },
   {  
      "name":"Хорольський район",
      "district":"Полтавська область",
      "country":"Україна",
      "latitude":49.7945854,
      "longitude":33.2366101
   },
   {  
      "name":"Чорнухинський район",
      "district":"Полтавська область",
      "country":"Україна",
      "latitude":50.2744552,
      "longitude":32.8896874
   },
   {  
      "name":"Чутівський район",
      "district":"Полтавська область",
      "country":"Україна",
      "latitude":49.7180346,
      "longitude":35.1228303
   },
   {  
      "name":"Шишацький район",
      "district":"Полтавська область",
      "country":"Україна",
      "latitude":49.9007677,
      "longitude":34.0384099
   },
   {  
      "name":"Рівне",
      "district":"Рівненська область",
      "country":"Україна",
      "latitude":50.6199,
      "longitude":26.251617
   },
   {  
      "name":"Березнівський район",
      "district":"Рівненська область",
      "country":"Україна",
      "latitude":50.979292,
      "longitude":26.8331529
   },
   {  
      "name":"Володимирецький район",
      "district":"Рівненська область",
      "country":"Україна",
      "latitude":51.4569918,
      "longitude":25.975956
   },
   {  
      "name":"Гощанський район",
      "district":"Рівненська область",
      "country":"Україна",
      "latitude":50.5930359,
      "longitude":26.5847306
   },
   {  
      "name":"Демидівський район",
      "district":"Рівненська область",
      "country":"Україна",
      "latitude":50.4586175,
      "longitude":25.2891487
   },
   {  
      "name":"Дубнівський район",
      "district":"Рівненська область",
      "country":"Україна",
      "latitude":50.3210083,
      "longitude":25.8743649
   },
   {  
      "name":"Дубровицький район",
      "district":"Рівненська область",
      "country":"Україна",
      "latitude":51.6388213,
      "longitude":26.5354533
   },
   {  
      "name":"Зарічненський район",
      "district":"Рівненська область",
      "country":"Україна",
      "latitude":51.80634509999999,
      "longitude":26.0265105
   },
   {  
      "name":"Здолбунівський район",
      "district":"Рівненська область",
      "country":"Україна",
      "latitude":50.3363534,
      "longitude":26.1791734
   },
   {  
      "name":"Корецький район",
      "district":"Рівненська область",
      "country":"Україна",
      "latitude":50.6475559,
      "longitude":27.0850149
   },
   {  
      "name":"Костопільський район",
      "district":"Рівненська область",
      "country":"Україна",
      "latitude":50.9231606,
      "longitude":26.3298469
   },
   {  
      "name":"Млинівський район",
      "district":"Рівненська область",
      "country":"Україна",
      "latitude":50.5755646,
      "longitude":25.5463223
   },
   {  
      "name":"Острозький район",
      "district":"Рівненська область",
      "country":"Україна",
      "latitude":50.42178200000001,
      "longitude":26.5570991
   },
   {  
      "name":"Радивилівський район",
      "district":"Рівненська область",
      "country":"Україна",
      "latitude":50.1882734,
      "longitude":25.3148716
   },
   {  
      "name":"Рівненський район",
      "district":"Рівненська область",
      "country":"Україна",
      "latitude":50.7075839,
      "longitude":26.1130419
   },
   {  
      "name":"Рокитнівський район",
      "district":"Рівненська область",
      "country":"Україна",
      "latitude":51.4597968,
      "longitude":27.2601179
   },
   {  
      "name":"Сарненський район",
      "district":"Рівненська область",
      "country":"Україна",
      "latitude":51.2828982,
      "longitude":26.6970732
   },
   {  
      "name":"Суми",
      "district":"Сумська область",
      "country":"Україна",
      "latitude":50.9077,
      "longitude":34.7981
   },
   {  
      "name":"Білопільський район",
      "district":"Сумська область",
      "country":"Україна",
      "latitude":51.094396,
      "longitude":34.2515336
   },
   {  
      "name":"Буринський район",
      "district":"Сумська область",
      "country":"Україна",
      "latitude":51.0940468,
      "longitude":33.8230694
   },
   {  
      "name":"Великописарівський район",
      "district":"Сумська область",
      "country":"Україна",
      "latitude":50.3768235,
      "longitude":35.3859026
   },
   {  
      "name":"Глухівський район",
      "district":"Сумська область",
      "country":"Україна",
      "latitude":51.7726116,
      "longitude":34.0706581
   },
   {  
      "name":"Конотопський район",
      "district":"Сумська область",
      "country":"Україна",
      "latitude":51.1434525,
      "longitude":33.3806229
   },
   {  
      "name":"Краснопільський район",
      "district":"Сумська область",
      "country":"Україна",
      "latitude":50.7894006,
      "longitude":35.2889881
   },
   {  
      "name":"Кролевецький район",
      "district":"Сумська область",
      "country":"Україна",
      "latitude":51.534963,
      "longitude":33.4847827
   },
   {  
      "name":"Лебединський район",
      "district":"Сумська область",
      "country":"Україна",
      "latitude":50.7322463,
      "longitude":34.346194
   },
   {  
      "name":"Липоводолинський район",
      "district":"Сумська область",
      "country":"Україна",
      "latitude":50.6162099,
      "longitude":33.8468153
   },
   {  
      "name":"Недригайлівський район",
      "district":"Сумська область",
      "country":"Україна",
      "latitude":50.8354375,
      "longitude":33.8935089
   },
   {  
      "name":"Охтирський район",
      "district":"Сумська область",
      "country":"Україна",
      "latitude":50.2431823,
      "longitude":34.6819211
   },
   {  
      "name":"Путивльський район",
      "district":"Сумська область",
      "country":"Україна",
      "latitude":51.3282864,
      "longitude":33.9741574
   },
   {  
      "name":"Роменський район",
      "district":"Сумська область",
      "country":"Україна",
      "latitude":50.66526400000001,
      "longitude":33.4096247
   },
   {  
      "name":"Середино-Будський район",
      "district":"Сумська область",
      "country":"Україна",
      "latitude":52.2057365,
      "longitude":33.6221737
   },
   {  
      "name":"Сумський район",
      "district":"Сумська область",
      "country":"Україна",
      "latitude":51.05300399999999,
      "longitude":34.7977984
   },
   {  
      "name":"Тростянецький район",
      "district":"Сумська область",
      "country":"Україна",
      "latitude":50.5359799,
      "longitude":34.9256038
   },
   {  
      "name":"Шосткинський район",
      "district":"Сумська область",
      "country":"Україна",
      "latitude":51.8347252,
      "longitude":33.2901282
   },
   {  
      "name":"Ямпільський район",
      "district":"Сумська область",
      "country":"Україна",
      "latitude":51.9469387,
      "longitude":33.7839971
   },
   {  
      "name":"Тернопіль",
      "district":"Тернопільська область",
      "country":"Україна",
      "latitude":49.553517,
      "longitude":25.594767
   },
   {  
      "name":"Бережанський район",
      "district":"Тернопільська область",
      "country":"Україна",
      "latitude":49.51691839999999,
      "longitude":24.8182992
   },
   {  
      "name":"Борщівський район",
      "district":"Тернопільська область",
      "country":"Україна",
      "latitude":48.6944818,
      "longitude":26.1092683
   },
   {  
      "name":"Бучацький район",
      "district":"Тернопільська область",
      "country":"Україна",
      "latitude":49.049169,
      "longitude":25.3450917
   },
   {  
      "name":"Гусятинський район",
      "district":"Тернопільська область",
      "country":"Україна",
      "latitude":49.2222031,
      "longitude":26.0716233
   },
   {  
      "name":"Заліщицький район",
      "district":"Тернопільська область",
      "country":"Україна",
      "latitude":48.7648915,
      "longitude":25.7277983
   },
   {  
      "name":"Збаразький район",
      "district":"Тернопільська область",
      "country":"Україна",
      "latitude":49.7639055,
      "longitude":25.7208891
   },
   {  
      "name":"Зборівський район",
      "district":"Тернопільська область",
      "country":"Україна",
      "latitude":49.7494678,
      "longitude":25.3182283
   },
   {  
      "name":"Козівський район",
      "district":"Тернопільська область",
      "country":"Україна",
      "latitude":49.5091353,
      "longitude":25.2285475
   },
   {  
      "name":"Кременецький район",
      "district":"Тернопільська область",
      "country":"Україна",
      "latitude":50.0349932,
      "longitude":25.5940803
   },
   {  
      "name":"Лановецький район",
      "district":"Тернопільська область",
      "country":"Україна",
      "latitude":49.8536543,
      "longitude":25.987087
   },
   {  
      "name":"Монастириський район",
      "district":"Тернопільська область",
      "country":"Україна",
      "latitude":49.101899,
      "longitude":25.1190195
   },
   {  
      "name":"Підволочиський район",
      "district":"Тернопільська область",
      "country":"Україна",
      "latitude":49.4176125,
      "longitude":25.9826186
   },
   {  
      "name":"Підгаєцький район",
      "district":"Тернопільська область",
      "country":"Україна",
      "latitude":49.2697271,
      "longitude":25.1398781
   },
   {  
      "name":"Теребовлянський район",
      "district":"Тернопільська область",
      "country":"Україна",
      "latitude":49.26059739999999,
      "longitude":25.5484363
   },
   {  
      "name":"Тернопільський район",
      "district":"Тернопільська область",
      "country":"Україна",
      "latitude":49.4723315,
      "longitude":25.7541791
   },
   {  
      "name":"Чортківський район",
      "district":"Тернопільська область",
      "country":"Україна",
      "latitude":48.9422155,
      "longitude":25.7965158
   },
   {  
      "name":"Шумський район",
      "district":"Тернопільська область",
      "country":"Україна",
      "latitude":50.0945587,
      "longitude":26.0825746
   },
   {  
      "name":"Харків",
      "district":"Харківська область",
      "country":"Україна",
      "latitude":49.9935,
      "longitude":36.230383
   },
   {  
      "name":"Балаклійський район",
      "district":"Харківська область",
      "country":"Україна",
      "latitude":49.4714053,
      "longitude":36.7281143
   },
   {  
      "name":"Барвінківський район",
      "district":"Харківська область",
      "country":"Україна",
      "latitude":48.97609840000001,
      "longitude":36.9274479
   },
   {  
      "name":"Близнюківський район",
      "district":"Харківська область",
      "country":"Україна",
      "latitude":48.7775301,
      "longitude":36.4581089
   },
   {  
      "name":"Богодухівський район",
      "district":"Харківська область",
      "country":"Україна",
      "latitude":50.1316223,
      "longitude":35.54755970000001
   },
   {  
      "name":"Борівський район",
      "district":"Харківська область",
      "country":"Україна",
      "latitude":49.3507184,
      "longitude":37.67834939999999
   },
   {  
      "name":"Валківський район",
      "district":"Харківська область",
      "country":"Україна",
      "latitude":49.8253032,
      "longitude":35.6171484
   },
   {  
      "name":"Великобурлуцький район",
      "district":"Харківська область",
      "country":"Україна",
      "latitude":50.10732549999999,
      "longitude":37.4391141
   },
   {  
      "name":"Вовчанський район",
      "district":"Харківська область",
      "country":"Україна",
      "latitude":50.24338909999999,
      "longitude":37.2038363
   },
   {  
      "name":"Дворічанський район",
      "district":"Харківська область",
      "country":"Україна",
      "latitude":49.8771216,
      "longitude":37.7937992
   },
   {  
      "name":"Дергачівський район",
      "district":"Харківська область",
      "country":"Україна",
      "latitude":50.1554448,
      "longitude":36.2761088
   },
   {  
      "name":"Зачепилівський район",
      "district":"Харківська область",
      "country":"Україна",
      "latitude":49.2127116,
      "longitude":35.2417837
   },
   {  
      "name":"Зміївський район",
      "district":"Харківська область",
      "country":"Україна",
      "latitude":49.6448164,
      "longitude":36.3827869
   },
   {  
      "name":"Золочівський район",
      "district":"Харківська область",
      "country":"Україна",
      "latitude":50.2779007,
      "longitude":35.9346733
   },
   {  
      "name":"Ізюмський район",
      "district":"Харківська область",
      "country":"Україна",
      "latitude":49.3155286,
      "longitude":37.2730713
   },
   {  
      "name":"Кегичівський район",
      "district":"Харківська область",
      "country":"Україна",
      "latitude":49.37966669999999,
      "longitude":35.8199072
   },
   {  
      "name":"Коломацький район",
      "district":"Харківська область",
      "country":"Україна",
      "latitude":49.8171851,
      "longitude":35.3071069
   },
   {  
      "name":"Красноградський район",
      "district":"Харківська область",
      "country":"Україна",
      "latitude":49.3975284,
      "longitude":35.5072116
   },
   {  
      "name":"Краснокутський район",
      "district":"Харківська область",
      "country":"Україна",
      "latitude":50.0350512,
      "longitude":35.1515718
   },
   {  
      "name":"Куп'янський район",
      "district":"Харківська область",
      "country":"Україна",
      "latitude":49.5538241,
      "longitude":37.6426324
   },
   {  
      "name":"Лозівський район",
      "district":"Харківська область",
      "country":"Україна",
      "latitude":49.0282309,
      "longitude":36.406949
   },
   {  
      "name":"Нововодолазький район",
      "district":"Харківська область",
      "country":"Україна",
      "latitude":49.6436234,
      "longitude":35.8651509
   },
   {  
      "name":"Первомайський район",
      "district":"Харківська область",
      "country":"Україна",
      "latitude":49.280097,
      "longitude":36.3550981
   },
   {  
      "name":"Печенізький район",
      "district":"Харківська область",
      "country":"Україна",
      "latitude":49.9075108,
      "longitude":36.9538473
   },
   {  
      "name":"Сахновщинський район",
      "district":"Харківська область",
      "country":"Україна",
      "latitude":49.06670889999999,
      "longitude":35.786216
   },
   {  
      "name":"Харківський район",
      "district":"Харківська область",
      "country":"Україна",
      "latitude":49.9708546,
      "longitude":36.5237539
   },
   {  
      "name":"Чугуївський район",
      "district":"Харківська область",
      "country":"Україна",
      "latitude":49.7607186,
      "longitude":36.7743699
   },
   {  
      "name":"Шевченківський район",
      "district":"Харків",
      "country":"Харківська область",
      "latitude":50.0452226,
      "longitude":36.2208517
   },
   {  
      "name":"Херсон",
      "district":"Херсонська область",
      "country":"Україна",
      "latitude":46.635417,
      "longitude":32.616867
   },
   {  
      "name":"Бериславський район",
      "district":"Херсонська область",
      "country":"Україна",
      "latitude":46.9571386,
      "longitude":33.4207435
   },
   {  
      "name":"Білозерський район",
      "district":"Херсонська область",
      "country":"Україна",
      "latitude":46.6056666,
      "longitude":32.3636117
   },
   {  
      "name":"Великолепетиський район",
      "district":"Херсонська область",
      "country":"Україна",
      "latitude":47.0570754,
      "longitude":34.17061020000001
   },
   {  
      "name":"Великоолександрівський район",
      "district":"Херсонська область",
      "country":"Україна",
      "latitude":47.1840833,
      "longitude":33.2617003
   },
   {  
      "name":"Верхньорогачицький район",
      "district":"Херсонська область",
      "country":"Україна",
      "latitude":47.1774188,
      "longitude":34.3349537
   },
   {  
      "name":"Високопільський район",
      "district":"Херсонська область",
      "country":"Україна",
      "latitude":47.4643799,
      "longitude":33.4782902
   },
   {  
      "name":"Генічеський район",
      "district":"Херсонська область",
      "country":"Україна",
      "latitude":46.1617948,
      "longitude":34.870262
   },
   {  
      "name":"Голопристанський район",
      "district":"Херсонська область",
      "country":"Україна",
      "latitude":46.3746093,
      "longitude":32.1453521
   },
   {  
      "name":"Горностаївський район",
      "district":"Херсонська область",
      "country":"Україна",
      "latitude":46.8765217,
      "longitude":33.9260215
   },
   {  
      "name":"Іванівський район",
      "district":"Херсонська область",
      "country":"Україна",
      "latitude":46.6975491,
      "longitude":34.4539424
   },
   {  
      "name":"Каланчацький район",
      "district":"Херсонська область",
      "country":"Україна",
      "latitude":46.1717581,
      "longitude":33.4406681
   },
   {  
      "name":"Каховський район",
      "district":"Херсонська область",
      "country":"Україна",
      "latitude":46.69593829999999,
      "longitude":33.6837268
   },
   {  
      "name":"Нижньосірогозький район",
      "district":"Херсонська область",
      "country":"Україна",
      "latitude":46.8889345,
      "longitude":34.4067041
   },
   {  
      "name":"Нововоронцовський район",
      "district":"Херсонська область",
      "country":"Україна",
      "latitude":47.3575376,
      "longitude":33.8005714
   },
   {  
      "name":"Новотроїцький район",
      "district":"Херсонська область",
      "country":"Україна",
      "latitude":46.37671779999999,
      "longitude":34.2455793
   },
   {  
      "name":"Скадовський район",
      "district":"Херсонська область",
      "country":"Україна",
      "latitude":46.1746472,
      "longitude":32.7746902
   },
   {  
      "name":"Цюрупинський район",
      "district":"Херсонська область",
      "country":"Україна",
      "latitude":46.5583328,
      "longitude":33.0484677
   },
   {  
      "name":"Чаплинський район",
      "district":"Херсонська область",
      "country":"Україна",
      "latitude":46.3983981,
      "longitude":33.666325
   },
   {  
      "name":"Хмельницьк",
      "district":"Хмельницька область",
      "country":"Україна",
      "latitude":49.422983,
      "longitude":26.9871331
   },
   {  
      "name":"Білогірський район",
      "district":"Хмельницька область",
      "country":"Україна",
      "latitude":50.0383153,
      "longitude":26.3148131
   },
   {  
      "name":"Віньковецький район",
      "district":"Хмельницька область",
      "country":"Україна",
      "latitude":49.0099105,
      "longitude":27.2753706
   },
   {  
      "name":"Волочиський район",
      "district":"Хмельницька область",
      "country":"Україна",
      "latitude":49.5237399,
      "longitude":26.4435225
   },
   {  
      "name":"Городоцький район",
      "district":"Хмельницька область",
      "country":"Україна",
      "latitude":49.2088781,
      "longitude":26.4821433
   },
   {  
      "name":"Деражнянський район",
      "district":"Хмельницька область",
      "country":"Україна",
      "latitude":49.2164474,
      "longitude":27.4915601
   },
   {  
      "name":"Дунаєвецький район",
      "district":"Хмельницька область",
      "country":"Україна",
      "latitude":48.8602962,
      "longitude":26.8365846
   },
   {  
      "name":"Ізяславський район",
      "district":"Хмельницька область",
      "country":"Україна",
      "latitude":50.1228045,
      "longitude":26.69056
   },
   {  
      "name":"Кам'янець-Подільський район",
      "district":"Хмельницька область",
      "country":"Україна",
      "latitude":48.5845879,
      "longitude":26.5569343
   },
   {  
      "name":"Красилівський район",
      "district":"Хмельницька область",
      "country":"Україна",
      "latitude":49.7263592,
      "longitude":26.8652428
   },
   {  
      "name":"Летичівський район",
      "district":"Хмельницька область",
      "country":"Україна",
      "latitude":49.4527803,
      "longitude":27.5959225
   },
   {  
      "name":"Новоушицький район",
      "district":"Хмельницька область",
      "country":"Україна",
      "latitude":48.746421,
      "longitude":27.2863424
   },
   {  
      "name":"Полонський район",
      "district":"Хмельницька область",
      "country":"Україна",
      "latitude":50.0176857,
      "longitude":27.4606032
   },
   {  
      "name":"Славутський район",
      "district":"Хмельницька область",
      "country":"Україна",
      "latitude":50.4055961,
      "longitude":26.9816018
   },
   {  
      "name":"Старокостянтинівський район",
      "district":"Хмельницька область",
      "country":"Україна",
      "latitude":49.7493214,
      "longitude":27.4712218
   },
   {  
      "name":"Старосинявський район",
      "district":"Хмельницька область",
      "country":"Україна",
      "latitude":49.62071359999999,
      "longitude":27.6278871
   },
   {  
      "name":"Теофіпольський район",
      "district":"Хмельницька область",
      "country":"Україна",
      "latitude":49.8403991,
      "longitude":26.4040541
   },
   {  
      "name":"Хмельницький район",
      "district":"Хмельницька область",
      "country":"Україна",
      "latitude":49.3897022,
      "longitude":26.8081863
   },
   {  
      "name":"Чемеровецький район",
      "district":"Хмельницька область",
      "country":"Україна",
      "latitude":48.97220919999999,
      "longitude":26.3856262
   },
   {  
      "name":"Шепетівський район",
      "district":"Хмельницька область",
      "country":"Україна",
      "latitude":50.2467609,
      "longitude":27.2589526
   },
   {  
      "name":"Ярмолинецький район",
      "district":"Хмельницька область",
      "country":"Україна",
      "latitude":49.1936914,
      "longitude":26.8935348
   },
   {  
      "name":"Черкаси",
      "district":"Черкаська область",
      "country":"Україна",
      "latitude":49.444433,
      "longitude":32.059767
   },
   {  
      "name":"Городищенський район",
      "district":"Черкаська область",
      "country":"Україна",
      "latitude":49.2649079,
      "longitude":31.4424859
   },
   {  
      "name":"Драбівський район",
      "district":"Черкаська область",
      "country":"Україна",
      "latitude":49.9546562,
      "longitude":32.1508844
   },
   {  
      "name":"Жашківський район",
      "district":"Черкаська область",
      "country":"Україна",
      "latitude":49.2021322,
      "longitude":30.1383886
   },
   {  
      "name":"Звенигородський район",
      "district":"Черкаська область",
      "country":"Україна",
      "latitude":49.1360261,
      "longitude":30.9753466
   },
   {  
      "name":"Золотоніський район",
      "district":"Черкаська область",
      "country":"Україна",
      "latitude":49.7580167,
      "longitude":31.9013109
   },
   {  
      "name":"Кам'янський район",
      "district":"Черкаська область",
      "country":"Україна",
      "latitude":49.0573598,
      "longitude":32.1195832
   },
   {  
      "name":"Канівський район",
      "district":"Черкаська область",
      "country":"Україна",
      "latitude":49.6649142,
      "longitude":31.3116836
   },
   {  
      "name":"Катеринопільський район",
      "district":"Черкаська область",
      "country":"Україна",
      "latitude":48.8390207,
      "longitude":31.0744416
   },
   {  
      "name":"Корсунь-Шевченківський район",
      "district":"Черкаська область",
      "country":"Україна",
      "latitude":49.43293629999999,
      "longitude":31.1827133
   },
   {  
      "name":"Лисянський район",
      "district":"Черкаська область",
      "country":"Україна",
      "latitude":49.2361751,
      "longitude":30.6358005
   },
   {  
      "name":"Маньківський район",
      "district":"Черкаська область",
      "country":"Україна",
      "latitude":48.9716974,
      "longitude":30.3212688
   },
   {  
      "name":"Монастирищенський район",
      "district":"Черкаська область",
      "country":"Україна",
      "latitude":49.0346078,
      "longitude":29.7924333
   },
   {  
      "name":"Смілянський район",
      "district":"Черкаська область",
      "country":"Україна",
      "latitude":49.1616639,
      "longitude":31.7816292
   },
   {  
      "name":"Тальнівський район",
      "district":"Черкаська область",
      "country":"Україна",
      "latitude":48.873264,
      "longitude":30.658773
   },
   {  
      "name":"Уманський район",
      "district":"Черкаська область",
      "country":"Україна",
      "latitude":48.6429781,
      "longitude":30.2349502
   },
   {  
      "name":"Христинівський район",
      "district":"Черкаська область",
      "country":"Україна",
      "latitude":48.8055767,
      "longitude":29.9760953
   },
   {  
      "name":"Черкаський район",
      "district":"Черкаська область",
      "country":"Україна",
      "latitude":49.4264214,
      "longitude":31.8001085
   },
   {  
      "name":"Чигиринський район",
      "district":"Черкаська область",
      "country":"Україна",
      "latitude":49.1157102,
      "longitude":32.5090852
   },
   {  
      "name":"Чорнобаївський район",
      "district":"Черкаська область",
      "country":"Україна",
      "latitude":49.4657584,
      "longitude":32.4039392
   },
   {  
      "name":"Шполянський район",
      "district":"Черкаська область",
      "country":"Україна",
      "latitude":49.000828,
      "longitude":31.4263464
   },
   {  
      "name":"Чернівці",
      "district":"Чернівецька область",
      "country":"Україна",
      "latitude":48.2920787,
      "longitude":25.9358367
   },
   {  
      "name":"Вижницький район",
      "district":"Чернівецька область",
      "country":"Україна",
      "latitude":48.1929172,
      "longitude":25.3481463
   },
   {  
      "name":"Герцаївський район",
      "district":"Чернівецька область",
      "country":"Україна",
      "latitude":48.17196939999999,
      "longitude":26.1453067
   },
   {  
      "name":"Глибоцький район",
      "district":"Чернівецька область",
      "country":"Україна",
      "latitude":48.0613675,
      "longitude":25.8999653
   },
   {  
      "name":"Заставнівський район",
      "district":"Чернівецька область",
      "country":"Україна",
      "latitude":48.5105674,
      "longitude":25.893835
   },
   {  
      "name":"Кельменецький район",
      "district":"Чернівецька область",
      "country":"Україна",
      "latitude":48.4565296,
      "longitude":26.8116766
   },
   {  
      "name":"Кіцманський район",
      "district":"Чернівецька область",
      "country":"Україна",
      "latitude":48.4439595,
      "longitude":25.7258484
   },
   {  
      "name":"Новоселицький район",
      "district":"Чернівецька область",
      "country":"Україна",
      "latitude":48.2820998,
      "longitude":26.3924161
   },
   {  
      "name":"Путильський район",
      "district":"Чернівецька область",
      "country":"Україна",
      "latitude":47.9159433,
      "longitude":25.0857895
   },
   {  
      "name":"Сокирянський район",
      "district":"Чернівецька область",
      "country":"Україна",
      "latitude":48.5127429,
      "longitude":27.1854459
   },
   {  
      "name":"Сторожинецький район",
      "district":"Чернівецька область",
      "country":"Україна",
      "latitude":48.1620301,
      "longitude":25.657571
   },
   {  
      "name":"Хотинський район",
      "district":"Чернівецька область",
      "country":"Україна",
      "latitude":48.4469175,
      "longitude":26.418688
   },
   {  
      "name":"Чернігів",
      "district":"Чернігівська область",
      "country":"Україна",
      "latitude":51.4982,
      "longitude":31.28934989999999
   },
   {  
      "name":"Бахмацький район",
      "district":"Чернігівська область",
      "country":"Україна",
      "latitude":51.12460970000001,
      "longitude":32.8503452
   },
   {  
      "name":"Бобровицький район",
      "district":"Чернігівська область",
      "country":"Україна",
      "latitude":50.7066889,
      "longitude":31.4908895
   },
   {  
      "name":"Борзнянський район",
      "district":"Чернігівська область",
      "country":"Україна",
      "latitude":51.2727567,
      "longitude":32.3762273
   },
   {  
      "name":"Варвинський район",
      "district":"Чернігівська область",
      "country":"Україна",
      "latitude":50.41321989999999,
      "longitude":32.7436396
   },
   {  
      "name":"Городнянський район",
      "district":"Чернігівська область",
      "country":"Україна",
      "latitude":51.9071643,
      "longitude":31.5223413
   },
   {  
      "name":"Ічнянський район",
      "district":"Чернігівська область",
      "country":"Україна",
      "latitude":50.89652960000001,
      "longitude":32.3856069
   },
   {  
      "name":"Козелецький район",
      "district":"Чернігівська область",
      "country":"Україна",
      "latitude":51.0351553,
      "longitude":30.8487239
   },
   {  
      "name":"Коропський район",
      "district":"Чернігівська область",
      "country":"Україна",
      "latitude":51.5687741,
      "longitude":32.933518
   },
   {  
      "name":"Корюківський район",
      "district":"Чернігівська область",
      "country":"Україна",
      "latitude":51.8229352,
      "longitude":32.4216237
   },
   {  
      "name":"Куликівський район",
      "district":"Чернігівська область",
      "country":"Україна",
      "latitude":51.3198938,
      "longitude":31.6089049
   },
   {  
      "name":"Менський район",
      "district":"Чернігівська область",
      "country":"Україна",
      "latitude":51.4862118,
      "longitude":31.98576929999999
   },
   {  
      "name":"Ніжинський район",
      "district":"Чернігівська область",
      "country":"Україна",
      "latitude":51.0055759,
      "longitude":32.0317931
   },
   {  
      "name":"Новгород-Сіверський район",
      "district":"Чернігівська область",
      "country":"Україна",
      "latitude":52.0304095,
      "longitude":33.1235809
   },
   {  
      "name":"Носівський район",
      "district":"Чернігівська область",
      "country":"Україна",
      "latitude":50.9433561,
      "longitude":31.625509
   },
   {  
      "name":"Прилуцький район",
      "district":"Чернігівська область",
      "country":"Україна",
      "latitude":50.6612739,
      "longitude":32.2461668
   },
   {  
      "name":"Ріпкинський район",
      "district":"Чернігівська область",
      "country":"Україна",
      "latitude":51.8084923,
      "longitude":30.9026481
   },
   {  
      "name":"Семенівський район",
      "district":"Чернігівська область",
      "country":"Україна",
      "latitude":52.1297757,
      "longitude":32.6548607
   },
   {  
      "name":"Сосницький район",
      "district":"Чернігівська область",
      "country":"Україна",
      "latitude":51.614265,
      "longitude":32.4863505
   },
   {  
      "name":"Срібнянський район",
      "district":"Чернігівська область",
      "country":"Україна",
      "latitude":50.64666039999999,
      "longitude":32.8855315
   },
   {  
      "name":"Талалаївський район",
      "district":"Чернігівська область",
      "country":"Україна",
      "latitude":50.8807855,
      "longitude":33.02907950000001
   },
   {  
      "name":"Чернігівський район",
      "district":"Чернігівська область",
      "country":"Україна",
      "latitude":51.3773101,
      "longitude":30.9443955
   },
   {  
      "name":"Щорський район",
      "district":"Чернігівська область",
      "country":"Україна",
      "latitude":51.8661355,
      "longitude":31.9720035
   }
]
